trip_id,arrival_time,departure_time,stop_id,stop_sequence,pickup_type,drop_off_type,stop_name,stop_lat,stop_lon,location_type,route_id,service_id,trip_headsign,block_id,trip_type
14,17:33:00,17:33:00,8100353,1,0,1,Flughafen Wien Bahnhof,48.121081,16.563102999999998,0,4,4,Graz Hbf,13,1
14,17:48:00,17:58:00,8103000,2,0,0,Wien Hbf,48.185101,16.377113,0,4,4,Graz Hbf,13,1
14,18:03:00,18:05:00,8100514,3,0,0,Wien Meidling Bahnhof,48.174582,16.333737,0,4,4,Graz Hbf,13,1
14,18:28:00,18:32:00,8100516,4,0,0,Wr.Neustadt Hbf,47.811693,16.233812,0,4,4,Graz Hbf,13,1
14,19:14:00,19:15:00,8100028,5,0,0,Semmering Bahnhof,47.639703999999995,15.831028,0,4,4,Graz Hbf,13,1
14,19:28:00,19:30:00,8100029,6,0,0,Mürzzuschlag Bahnhof,47.607874,15.677004,0,4,4,Graz Hbf,13,1
14,19:51:00,19:52:00,8100031,7,0,0,Kapfenberg Bahnhof,47.445195,15.292089,0,4,4,Graz Hbf,13,1
14,19:56:00,19:58:00,8100032,8,0,0,Bruck/Mur Bahnhof,47.413649,15.279495,0,4,4,Graz Hbf,13,1
14,20:33:00,20:33:00,8100173,9,1,0,Graz Hbf,47.072503000000005,15.416464000000001,0,4,4,Graz Hbf,13,1
96,07:00:00,07:00:00,7800020,1,0,1,Zagreb Glavni kolodvor,45.8044381,15.9787052,0,9,0,Wien Hbf,81,1
96,10:14:00,10:19:00,7900006,2,0,1,Maribor,46.562065000000004,15.658010999999998,0,9,0,Wien Hbf,81,1
96,10:36:00,10:48:00,8100082,3,0,0,Spielfeld-Straß Bahnhof,46.709581,15.629121,0,9,0,Wien Hbf,81,1
96,10:57:00,10:58:00,8100035,4,0,0,Leibnitz Bahnhof,46.781221,15.546851,0,9,0,Wien Hbf,81,1
96,11:20:00,11:26:00,8100173,5,0,0,Graz Hbf,47.072503000000005,15.416464000000001,0,9,0,Wien Hbf,81,1
96,12:01:00,12:03:00,8100032,6,0,0,Bruck/Mur Bahnhof,47.413649,15.279495,0,9,0,Wien Hbf,81,1
96,12:09:00,12:11:00,8100031,7,0,0,Kapfenberg Bahnhof,47.445195,15.292089,0,9,0,Wien Hbf,81,1
96,12:32:00,12:33:00,8100029,8,0,0,Mürzzuschlag Bahnhof,47.607874,15.677004,0,9,0,Wien Hbf,81,1
96,13:28:00,13:32:00,8100516,9,0,0,Wr.Neustadt Hbf,47.811693,16.233812,0,9,0,Wien Hbf,81,1
96,13:55:00,13:57:00,8100514,10,0,0,Wien Meidling Bahnhof,48.174582,16.333737,0,9,0,Wien Hbf,81,1
96,14:02:00,14:02:00,8103000,11,1,0,Wien Hbf,48.185101,16.377113,0,9,0,Wien Hbf,81,1
4210,05:58:00,05:58:00,8103000,1,0,1,Wien Hbf,48.185101,16.377113,0,4,0,Graz Hbf,3693,1
4210,06:03:00,06:05:00,8100514,2,0,0,Wien Meidling Bahnhof,48.174582,16.333737,0,4,0,Graz Hbf,3693,1
4210,06:28:00,06:32:00,8100516,3,0,0,Wr.Neustadt Hbf,47.811693,16.233812,0,4,0,Graz Hbf,3693,1
4210,07:28:00,07:30:00,8100029,4,0,0,Mürzzuschlag Bahnhof,47.607874,15.677004,0,4,0,Graz Hbf,3693,1
4210,07:51:00,07:52:00,8100031,5,0,0,Kapfenberg Bahnhof,47.445195,15.292089,0,4,0,Graz Hbf,3693,1
4210,07:56:00,07:58:00,8100032,6,0,0,Bruck/Mur Bahnhof,47.413649,15.279495,0,4,0,Graz Hbf,3693,1
4210,08:33:00,08:33:00,8100173,7,1,0,Graz Hbf,47.072503000000005,15.416464000000001,0,4,0,Graz Hbf,3693,1
4211,06:33:00,06:33:00,8100353,1,0,1,Flughafen Wien Bahnhof,48.121081,16.563102999999998,0,4,0,Graz Hbf,3694,1
4211,06:48:00,06:58:00,8103000,2,0,0,Wien Hbf,48.185101,16.377113,0,4,0,Graz Hbf,3694,1
4211,07:03:00,07:05:00,8100514,3,0,0,Wien Meidling Bahnhof,48.174582,16.333737,0,4,0,Graz Hbf,3694,1
4211,07:28:00,07:32:00,8100516,4,0,0,Wr.Neustadt Hbf,47.811693,16.233812,0,4,0,Graz Hbf,3694,1
4211,08:28:00,08:30:00,8100029,5,0,0,Mürzzuschlag Bahnhof,47.607874,15.677004,0,4,0,Graz Hbf,3694,1
4211,08:51:00,08:52:00,8100031,6,0,0,Kapfenberg Bahnhof,47.445195,15.292089,0,4,0,Graz Hbf,3694,1
4211,08:56:00,08:58:00,8100032,7,0,0,Bruck/Mur Bahnhof,47.413649,15.279495,0,4,0,Graz Hbf,3694,1
4211,09:33:00,09:33:00,8100173,8,1,0,Graz Hbf,47.072503000000005,15.416464000000001,0,4,0,Graz Hbf,3694,1
4212,07:26:00,07:26:00,8100173,1,0,1,Graz Hbf,47.072503000000005,15.416464000000001,0,4,0,Flughafen Wien Bahnhof,3695,1
4212,08:01:00,08:03:00,8100032,2,0,0,Bruck/Mur Bahnhof,47.413649,15.279495,0,4,0,Flughafen Wien Bahnhof,3695,1
4212,08:09:00,08:11:00,8100031,3,0,0,Kapfenberg Bahnhof,47.445195,15.292089,0,4,0,Flughafen Wien Bahnhof,3695,1
4212,08:32:00,08:33:00,8100029,4,0,0,Mürzzuschlag Bahnhof,47.607874,15.677004,0,4,0,Flughafen Wien Bahnhof,3695,1
4212,08:45:00,08:47:00,8100028,5,0,0,Semmering Bahnhof,47.639703999999995,15.831028,0,4,0,Flughafen Wien Bahnhof,3695,1
4212,09:28:00,09:32:00,8100516,6,0,0,Wr.Neustadt Hbf,47.811693,16.233812,0,4,0,Flughafen Wien Bahnhof,3695,1
4212,09:55:00,09:57:00,8100514,7,0,0,Wien Meidling Bahnhof,48.174582,16.333737,0,4,0,Flughafen Wien Bahnhof,3695,1
4212,10:02:00,10:12:00,8103000,8,0,0,Wien Hbf,48.185101,16.377113,0,4,0,Flughafen Wien Bahnhof,3695,1
4212,10:27:00,10:27:00,8100353,9,1,0,Flughafen Wien Bahnhof,48.121081,16.563102999999998,0,4,0,Flughafen Wien Bahnhof,3695,1
4279,09:26:00,09:26:00,8100173,1,0,1,Graz Hbf,47.072503000000005,15.416464000000001,0,4,0,Flughafen Wien Bahnhof,3738,1
4279,10:01:00,10:03:00,8100032,2,0,0,Bruck/Mur Bahnhof,47.413649,15.279495,0,4,0,Flughafen Wien Bahnhof,3738,1
4279,10:09:00,10:11:00,8100031,3,0,0,Kapfenberg Bahnhof,47.445195,15.292089,0,4,0,Flughafen Wien Bahnhof,3738,1
4279,10:32:00,10:33:00,8100029,4,0,0,Mürzzuschlag Bahnhof,47.607874,15.677004,0,4,0,Flughafen Wien Bahnhof,3738,1
4279,11:28:00,11:32:00,8100516,5,0,0,Wr.Neustadt Hbf,47.811693,16.233812,0,4,0,Flughafen Wien Bahnhof,3738,1
4279,11:55:00,11:57:00,8100514,6,0,0,Wien Meidling Bahnhof,48.174582,16.333737,0,4,0,Flughafen Wien Bahnhof,3738,1
4279,12:02:00,12:12:00,8103000,7,0,0,Wien Hbf,48.185101,16.377113,0,4,0,Flughafen Wien Bahnhof,3738,1
4279,12:27:00,12:27:00,8100353,8,1,0,Flughafen Wien Bahnhof,48.121081,16.563102999999998,0,4,0,Flughafen Wien Bahnhof,3738,1
4298,09:33:00,09:33:00,8100353,1,0,1,Flughafen Wien Bahnhof,48.121081,16.563102999999998,0,4,0,Graz Hbf,3751,1
4298,09:48:00,09:58:00,8103000,2,0,0,Wien Hbf,48.185101,16.377113,0,4,0,Graz Hbf,3751,1
4298,10:03:00,10:05:00,8100514,3,0,0,Wien Meidling Bahnhof,48.174582,16.333737,0,4,0,Graz Hbf,3751,1
4298,10:28:00,10:32:00,8100516,4,0,0,Wr.Neustadt Hbf,47.811693,16.233812,0,4,0,Graz Hbf,3751,1
4298,11:14:00,11:15:00,8100028,5,0,0,Semmering Bahnhof,47.639703999999995,15.831028,0,4,0,Graz Hbf,3751,1
4298,11:28:00,11:30:00,8100029,6,0,0,Mürzzuschlag Bahnhof,47.607874,15.677004,0,4,0,Graz Hbf,3751,1
4298,11:51:00,11:52:00,8100031,7,0,0,Kapfenberg Bahnhof,47.445195,15.292089,0,4,0,Graz Hbf,3751,1
4298,11:56:00,11:58:00,8100032,8,0,0,Bruck/Mur Bahnhof,47.413649,15.279495,0,4,0,Graz Hbf,3751,1
4298,12:33:00,12:33:00,8100173,9,1,0,Graz Hbf,47.072503000000005,15.416464000000001,0,4,0,Graz Hbf,3751,1
4907,11:33:00,11:33:00,8100353,1,0,1,Flughafen Wien Bahnhof,48.121081,16.563102999999998,0,4,0,Graz Hbf,4295,1
4907,11:48:00,11:58:00,8103000,2,0,0,Wien Hbf,48.185101,16.377113,0,4,0,Graz Hbf,4295,1
4907,12:03:00,12:05:00,8100514,3,0,0,Wien Meidling Bahnhof,48.174582,16.333737,0,4,0,Graz Hbf,4295,1
4907,12:28:00,12:32:00,8100516,4,0,0,Wr.Neustadt Hbf,47.811693,16.233812,0,4,0,Graz Hbf,4295,1
4907,13:14:00,13:15:00,8100028,5,0,0,Semmering Bahnhof,47.639703999999995,15.831028,0,4,0,Graz Hbf,4295,1
4907,13:28:00,13:30:00,8100029,6,0,0,Mürzzuschlag Bahnhof,47.607874,15.677004,0,4,0,Graz Hbf,4295,1
4907,13:51:00,13:52:00,8100031,7,0,0,Kapfenberg Bahnhof,47.445195,15.292089,0,4,0,Graz Hbf,4295,1
4907,13:56:00,13:58:00,8100032,8,0,0,Bruck/Mur Bahnhof,47.413649,15.279495,0,4,0,Graz Hbf,4295,1
4907,14:33:00,14:33:00,8100173,9,1,0,Graz Hbf,47.072503000000005,15.416464000000001,0,4,0,Graz Hbf,4295,1
4934,13:26:00,13:26:00,8100173,1,0,1,Graz Hbf,47.072503000000005,15.416464000000001,0,4,0,Flughafen Wien Bahnhof,4321,1
4934,14:01:00,14:03:00,8100032,2,0,0,Bruck/Mur Bahnhof,47.413649,15.279495,0,4,0,Flughafen Wien Bahnhof,4321,1
4934,14:09:00,14:11:00,8100031,3,0,0,Kapfenberg Bahnhof,47.445195,15.292089,0,4,0,Flughafen Wien Bahnhof,4321,1
4934,14:32:00,14:33:00,8100029,4,0,0,Mürzzuschlag Bahnhof,47.607874,15.677004,0,4,0,Flughafen Wien Bahnhof,4321,1
4934,15:28:00,15:32:00,8100516,5,0,0,Wr.Neustadt Hbf,47.811693,16.233812,0,4,0,Flughafen Wien Bahnhof,4321,1
4934,15:55:00,15:57:00,8100514,6,0,0,Wien Meidling Bahnhof,48.174582,16.333737,0,4,0,Flughafen Wien Bahnhof,4321,1
4934,16:02:00,16:12:00,8103000,7,0,0,Wien Hbf,48.185101,16.377113,0,4,0,Flughafen Wien Bahnhof,4321,1
4934,16:27:00,16:27:00,8100353,8,1,0,Flughafen Wien Bahnhof,48.121081,16.563102999999998,0,4,0,Flughafen Wien Bahnhof,4321,1
4940,13:33:00,13:33:00,8100353,1,0,1,Flughafen Wien Bahnhof,48.121081,16.563102999999998,0,4,0,Graz Hbf,4327,1
4940,13:48:00,13:58:00,8103000,2,0,0,Wien Hbf,48.185101,16.377113,0,4,0,Graz Hbf,4327,1
4940,14:03:00,14:05:00,8100514,3,0,0,Wien Meidling Bahnhof,48.174582,16.333737,0,4,0,Graz Hbf,4327,1
4940,14:28:00,14:32:00,8100516,4,0,0,Wr.Neustadt Hbf,47.811693,16.233812,0,4,0,Graz Hbf,4327,1
4940,15:28:00,15:30:00,8100029,5,0,0,Mürzzuschlag Bahnhof,47.607874,15.677004,0,4,0,Graz Hbf,4327,1
4940,15:51:00,15:52:00,8100031,6,0,0,Kapfenberg Bahnhof,47.445195,15.292089,0,4,0,Graz Hbf,4327,1
4940,15:56:00,15:58:00,8100032,7,0,0,Bruck/Mur Bahnhof,47.413649,15.279495,0,4,0,Graz Hbf,4327,1
4940,16:33:00,16:33:00,8100173,8,1,0,Graz Hbf,47.072503000000005,15.416464000000001,0,4,0,Graz Hbf,4327,1
5243,15:26:00,15:26:00,8100173,1,0,1,Graz Hbf,47.072503000000005,15.416464000000001,0,4,0,Flughafen Wien Bahnhof,4620,1
5243,16:01:00,16:03:00,8100032,2,0,0,Bruck/Mur Bahnhof,47.413649,15.279495,0,4,0,Flughafen Wien Bahnhof,4620,1
5243,16:09:00,16:11:00,8100031,3,0,0,Kapfenberg Bahnhof,47.445195,15.292089,0,4,0,Flughafen Wien Bahnhof,4620,1
5243,16:32:00,16:33:00,8100029,4,0,0,Mürzzuschlag Bahnhof,47.607874,15.677004,0,4,0,Flughafen Wien Bahnhof,4620,1
5243,16:45:00,16:47:00,8100028,5,0,0,Semmering Bahnhof,47.639703999999995,15.831028,0,4,0,Flughafen Wien Bahnhof,4620,1
5243,17:28:00,17:32:00,8100516,6,0,0,Wr.Neustadt Hbf,47.811693,16.233812,0,4,0,Flughafen Wien Bahnhof,4620,1
5243,17:55:00,17:57:00,8100514,7,0,0,Wien Meidling Bahnhof,48.174582,16.333737,0,4,0,Flughafen Wien Bahnhof,4620,1
5243,18:02:00,18:12:00,8103000,8,0,0,Wien Hbf,48.185101,16.377113,0,4,0,Flughafen Wien Bahnhof,4620,1
5243,18:27:00,18:27:00,8100353,9,1,0,Flughafen Wien Bahnhof,48.121081,16.563102999999998,0,4,0,Flughafen Wien Bahnhof,4620,1
5269,17:26:00,17:26:00,8100173,1,0,1,Graz Hbf,47.072503000000005,15.416464000000001,0,4,0,Flughafen Wien Bahnhof,4645,1
5269,18:01:00,18:03:00,8100032,2,0,0,Bruck/Mur Bahnhof,47.413649,15.279495,0,4,0,Flughafen Wien Bahnhof,4645,1
5269,18:09:00,18:11:00,8100031,3,0,0,Kapfenberg Bahnhof,47.445195,15.292089,0,4,0,Flughafen Wien Bahnhof,4645,1
5269,18:32:00,18:33:00,8100029,4,0,0,Mürzzuschlag Bahnhof,47.607874,15.677004,0,4,0,Flughafen Wien Bahnhof,4645,1
5269,18:45:00,18:47:00,8100028,5,0,0,Semmering Bahnhof,47.639703999999995,15.831028,0,4,0,Flughafen Wien Bahnhof,4645,1
5269,19:28:00,19:32:00,8100516,6,0,0,Wr.Neustadt Hbf,47.811693,16.233812,0,4,0,Flughafen Wien Bahnhof,4645,1
5269,19:55:00,19:57:00,8100514,7,0,0,Wien Meidling Bahnhof,48.174582,16.333737,0,4,0,Flughafen Wien Bahnhof,4645,1
5269,20:02:00,20:12:00,8103000,8,0,0,Wien Hbf,48.185101,16.377113,0,4,0,Flughafen Wien Bahnhof,4645,1
5269,20:27:00,20:27:00,8100353,9,1,0,Flughafen Wien Bahnhof,48.121081,16.563102999999998,0,4,0,Flughafen Wien Bahnhof,4645,1
5272,17:33:00,17:33:00,8100353,1,0,1,Flughafen Wien Bahnhof,48.121081,16.563102999999998,0,4,20,Graz Hbf,4648,1
5272,17:48:00,17:58:00,8103000,2,0,0,Wien Hbf,48.185101,16.377113,0,4,20,Graz Hbf,4648,1
5272,18:03:00,18:05:00,8100514,3,0,0,Wien Meidling Bahnhof,48.174582,16.333737,0,4,20,Graz Hbf,4648,1
5272,18:30:00,18:32:00,8100516,4,0,0,Wr.Neustadt Hbf,47.811693,16.233812,0,4,20,Graz Hbf,4648,1
5272,19:14:00,19:15:00,8100028,5,0,0,Semmering Bahnhof,47.639703999999995,15.831028,0,4,20,Graz Hbf,4648,1
5272,19:28:00,19:30:00,8100029,6,0,0,Mürzzuschlag Bahnhof,47.607874,15.677004,0,4,20,Graz Hbf,4648,1
5272,19:51:00,19:52:00,8100031,7,0,0,Kapfenberg Bahnhof,47.445195,15.292089,0,4,20,Graz Hbf,4648,1
5272,19:56:00,19:58:00,8100032,8,0,0,Bruck/Mur Bahnhof,47.413649,15.279495,0,4,20,Graz Hbf,4648,1
5272,20:33:00,20:33:00,8100173,9,1,0,Graz Hbf,47.072503000000005,15.416464000000001,0,4,20,Graz Hbf,4648,1
5393,20:26:00,20:26:00,8100173,1,0,1,Graz Hbf,47.072503000000005,15.416464000000001,0,4,0,Wien Hbf,4762,1
5393,21:01:00,21:03:00,8100032,2,0,0,Bruck/Mur Bahnhof,47.413649,15.279495,0,4,0,Wien Hbf,4762,1
5393,21:09:00,21:11:00,8100031,3,0,0,Kapfenberg Bahnhof,47.445195,15.292089,0,4,0,Wien Hbf,4762,1
5393,21:32:00,21:33:00,8100029,4,0,0,Mürzzuschlag Bahnhof,47.607874,15.677004,0,4,0,Wien Hbf,4762,1
5393,22:28:00,22:32:00,8100516,5,0,0,Wr.Neustadt Hbf,47.811693,16.233812,0,4,0,Wien Hbf,4762,1
5393,22:55:00,22:57:00,8100514,6,0,0,Wien Meidling Bahnhof,48.174582,16.333737,0,4,0,Wien Hbf,4762,1
5393,23:02:00,23:02:00,8103000,7,1,0,Wien Hbf,48.185101,16.377113,0,4,0,Wien Hbf,4762,1
5394,21:26:00,21:26:00,8100173,1,0,1,Graz Hbf,47.072503000000005,15.416464000000001,0,7,0,Wien Hbf,4763,1
5394,22:01:00,22:03:00,8100032,2,0,0,Bruck/Mur Bahnhof,47.413649,15.279495,0,7,0,Wien Hbf,4763,1
5394,22:09:00,22:11:00,8100031,3,0,0,Kapfenberg Bahnhof,47.445195,15.292089,0,7,0,Wien Hbf,4763,1
5394,22:32:00,22:33:00,8100029,4,0,0,Mürzzuschlag Bahnhof,47.607874,15.677004,0,7,0,Wien Hbf,4763,1
5394,23:28:00,23:32:00,8100516,5,0,0,Wr.Neustadt Hbf,47.811693,16.233812,0,7,0,Wien Hbf,4763,1
5394,23:55:00,23:57:00,8100514,6,0,0,Wien Meidling Bahnhof,48.174582,16.333737,0,7,0,Wien Hbf,4763,1
5394,24:02:00,24:02:00,8103000,7,1,0,Wien Hbf,48.185101,16.377113,0,7,0,Wien Hbf,4763,1
5395,21:58:00,21:58:00,8103000,1,0,1,Wien Hbf,48.185101,16.377113,0,4,237,Graz Hbf,4764,1
5395,22:03:00,22:05:00,8100514,2,0,0,Wien Meidling Bahnhof,48.174582,16.333737,0,4,237,Graz Hbf,4764,1
5395,22:28:00,22:32:00,8100516,3,0,0,Wr.Neustadt Hbf,47.811693,16.233812,0,4,237,Graz Hbf,4764,1
5395,23:28:00,23:30:00,8100029,4,0,0,Mürzzuschlag Bahnhof,47.607874,15.677004,0,4,237,Graz Hbf,4764,1
5395,23:51:00,23:52:00,8100031,5,0,0,Kapfenberg Bahnhof,47.445195,15.292089,0,4,237,Graz Hbf,4764,1
5395,23:56:00,23:58:00,8100032,6,0,0,Bruck/Mur Bahnhof,47.413649,15.279495,0,4,237,Graz Hbf,4764,1
5395,24:33:00,24:33:00,8100173,7,1,0,Graz Hbf,47.072503000000005,15.416464000000001,0,4,237,Graz Hbf,4764,1
5396,01:58:00,01:58:00,8103000,1,0,1,Wien Hbf,48.185101,16.377113,0,4,238,Graz Hbf,4765,1
5396,02:03:00,02:05:00,8100514,2,0,0,Wien Meidling Bahnhof,48.174582,16.333737,0,4,238,Graz Hbf,4765,1
5396,02:28:00,02:32:00,8100516,3,0,0,Wr.Neustadt Hbf,47.811693,16.233812,0,4,238,Graz Hbf,4765,1
5396,03:28:00,03:30:00,8100029,4,0,0,Mürzzuschlag Bahnhof,47.607874,15.677004,0,4,238,Graz Hbf,4765,1
5396,03:51:00,03:52:00,8100031,5,0,0,Kapfenberg Bahnhof,47.445195,15.292089,0,4,238,Graz Hbf,4765,1
5396,03:56:00,03:58:00,8100032,6,0,0,Bruck/Mur Bahnhof,47.413649,15.279495,0,4,238,Graz Hbf,4765,1
5396,04:33:00,04:33:00,8100173,7,1,0,Graz Hbf,47.072503000000005,15.416464000000001,0,4,238,Graz Hbf,4765,1
5776,05:28:00,05:28:00,8100173,1,0,1,Graz Hbf,47.072503000000005,15.416464000000001,0,9,0,Bohumin,7906,1
5776,06:03:00,06:05:00,8100032,2,0,0,Bruck/Mur Bahnhof,47.413649,15.279495,0,9,0,Bohumin,7906,1
5776,06:11:00,06:12:00,8100031,3,0,0,Kapfenberg Bahnhof,47.445195,15.292089,0,9,0,Bohumin,7906,1
5776,06:33:00,06:34:00,8100029,4,0,0,Mürzzuschlag Bahnhof,47.607874,15.677004,0,9,0,Bohumin,7906,1
5776,07:28:00,07:30:00,8100516,5,0,0,Wr.Neustadt Hbf,47.811693,16.233812,0,9,0,Bohumin,7906,1
5776,07:55:00,07:57:00,8100514,6,0,0,Wien Meidling Bahnhof,48.174582,16.333737,0,9,0,Bohumin,7906,1
5776,08:02:00,08:10:00,8103000,7,0,0,Wien Hbf,48.185101,16.377113,0,9,0,Bohumin,7906,1
5776,09:04:00,09:12:00,5400202,8,1,0,Breclav,48.7539,16.893235999999998,0,9,0,Bohumin,7906,1
5776,11:09:00,11:09:00,5400038,9,1,0,Bohumin,49.900731,18.359444,0,9,0,Bohumin,7906,1
5777,16:51:00,16:51:00,5400038,1,0,1,Bohumin,49.900731,18.359444,0,9,0,Graz Hbf,7907,1
5777,18:45:00,18:55:00,5400202,2,0,1,Breclav,48.7539,16.893235999999998,0,9,0,Graz Hbf,7907,1
5777,19:49:00,19:58:00,8103000,3,0,0,Wien Hbf,48.185101,16.377113,0,9,0,Graz Hbf,7907,1
5777,20:03:00,20:05:00,8100514,4,0,0,Wien Meidling Bahnhof,48.174582,16.333737,0,9,0,Graz Hbf,7907,1
5777,20:28:00,20:32:00,8100516,5,0,0,Wr.Neustadt Hbf,47.811693,16.233812,0,9,0,Graz Hbf,7907,1
5777,21:28:00,21:30:00,8100029,6,0,0,Mürzzuschlag Bahnhof,47.607874,15.677004,0,9,0,Graz Hbf,7907,1
5777,21:51:00,21:52:00,8100031,7,0,0,Kapfenberg Bahnhof,47.445195,15.292089,0,9,0,Graz Hbf,7907,1
5777,21:56:00,21:58:00,8100032,8,0,0,Bruck/Mur Bahnhof,47.413649,15.279495,0,9,0,Graz Hbf,7907,1
5777,22:33:00,22:33:00,8100173,9,1,0,Graz Hbf,47.072503000000005,15.416464000000001,0,9,0,Graz Hbf,7907,1
5836,15:58:00,15:58:00,8103000,1,0,1,Wien Hbf,48.185101,16.377113,0,9,2806,Zagreb Glavni kolodvor,7967,1
5836,16:03:00,16:05:00,8100514,2,0,0,Wien Meidling Bahnhof,48.174582,16.333737,0,9,2806,Zagreb Glavni kolodvor,7967,1
5836,16:28:00,16:32:00,8100516,3,0,0,Wr.Neustadt Hbf,47.811693,16.233812,0,9,2806,Zagreb Glavni kolodvor,7967,1
5836,17:28:00,17:30:00,8100029,4,0,0,Mürzzuschlag Bahnhof,47.607874,15.677004,0,9,2806,Zagreb Glavni kolodvor,7967,1
5836,17:51:00,17:52:00,8100031,5,0,0,Kapfenberg Bahnhof,47.445195,15.292089,0,9,2806,Zagreb Glavni kolodvor,7967,1
5836,17:56:00,17:58:00,8100032,6,0,0,Bruck/Mur Bahnhof,47.413649,15.279495,0,9,2806,Zagreb Glavni kolodvor,7967,1
5836,18:33:00,18:39:00,8100173,7,0,0,Graz Hbf,47.072503000000005,15.416464000000001,0,9,2806,Zagreb Glavni kolodvor,7967,1
5836,18:58:00,18:59:00,8100035,8,0,0,Leibnitz Bahnhof,46.781221,15.546851,0,9,2806,Zagreb Glavni kolodvor,7967,1
5836,19:08:00,19:20:00,8100082,9,0,0,Spielfeld-Straß Bahnhof,46.709581,15.629121,0,9,2806,Zagreb Glavni kolodvor,7967,1
5836,19:35:00,19:40:00,7900006,10,1,0,Maribor,46.562065000000004,15.658010999999998,0,9,2806,Zagreb Glavni kolodvor,7967,1
5836,22:41:00,22:41:00,7800020,11,1,0,Zagreb Glavni kolodvor,45.8044381,15.9787052,0,9,2806,Zagreb Glavni kolodvor,7967,1
5837,15:58:00,15:58:00,8103000,1,0,1,Wien Hbf,48.185101,16.377113,0,9,2807,Zagreb Glavni kolodvor,7968,1
5837,16:03:00,16:05:00,8100514,2,0,0,Wien Meidling Bahnhof,48.174582,16.333737,0,9,2807,Zagreb Glavni kolodvor,7968,1
5837,16:28:00,16:32:00,8100516,3,0,0,Wr.Neustadt Hbf,47.811693,16.233812,0,9,2807,Zagreb Glavni kolodvor,7968,1
5837,17:28:00,17:30:00,8100029,4,0,0,Mürzzuschlag Bahnhof,47.607874,15.677004,0,9,2807,Zagreb Glavni kolodvor,7968,1
5837,17:51:00,17:52:00,8100031,5,0,0,Kapfenberg Bahnhof,47.445195,15.292089,0,9,2807,Zagreb Glavni kolodvor,7968,1
5837,17:56:00,17:58:00,8100032,6,0,0,Bruck/Mur Bahnhof,47.413649,15.279495,0,9,2807,Zagreb Glavni kolodvor,7968,1
5837,18:33:00,18:39:00,8100173,7,0,0,Graz Hbf,47.072503000000005,15.416464000000001,0,9,2807,Zagreb Glavni kolodvor,7968,1
5837,18:58:00,18:59:00,8100035,8,0,0,Leibnitz Bahnhof,46.781221,15.546851,0,9,2807,Zagreb Glavni kolodvor,7968,1
5837,19:08:00,19:20:00,8100082,9,0,0,Spielfeld-Straß Bahnhof,46.709581,15.629121,0,9,2807,Zagreb Glavni kolodvor,7968,1
5837,19:37:00,19:55:00,7900006,10,1,0,Maribor,46.562065000000004,15.658010999999998,0,9,2807,Zagreb Glavni kolodvor,7968,1
5837,22:41:00,22:41:00,7800020,11,1,0,Zagreb Glavni kolodvor,45.8044381,15.9787052,0,9,2807,Zagreb Glavni kolodvor,7968,1
5864,15:45:00,15:45:00,7900003,1,0,1,Ljubljana,46.058690999999996,14.512936999999999,0,9,1000,Wien Hbf,7997,1
5864,18:07:00,18:21:00,7900006,2,0,1,Maribor,46.562065000000004,15.658010999999998,0,9,1000,Wien Hbf,7997,1
5864,18:36:00,18:48:00,8100082,3,0,0,Spielfeld-Straß Bahnhof,46.709581,15.629121,0,9,1000,Wien Hbf,7997,1
5864,18:57:00,18:58:00,8100035,4,0,0,Leibnitz Bahnhof,46.781221,15.546851,0,9,1000,Wien Hbf,7997,1
5864,19:20:00,19:26:00,8100173,5,0,0,Graz Hbf,47.072503000000005,15.416464000000001,0,9,1000,Wien Hbf,7997,1
5864,20:01:00,20:03:00,8100032,6,0,0,Bruck/Mur Bahnhof,47.413649,15.279495,0,9,1000,Wien Hbf,7997,1
5864,20:09:00,20:11:00,8100031,7,0,0,Kapfenberg Bahnhof,47.445195,15.292089,0,9,1000,Wien Hbf,7997,1
5864,20:32:00,20:33:00,8100029,8,0,0,Mürzzuschlag Bahnhof,47.607874,15.677004,0,9,1000,Wien Hbf,7997,1
5864,21:28:00,21:32:00,8100516,9,0,0,Wr.Neustadt Hbf,47.811693,16.233812,0,9,1000,Wien Hbf,7997,1
5864,21:55:00,21:57:00,8100514,10,0,0,Wien Meidling Bahnhof,48.174582,16.333737,0,9,1000,Wien Hbf,7997,1
5864,22:02:00,22:02:00,8103000,11,1,0,Wien Hbf,48.185101,16.377113,0,9,1000,Wien Hbf,7997,1
5865,15:45:00,15:45:00,7900003,1,0,1,Ljubljana,46.058690999999996,14.512936999999999,0,9,1797,Wien Hbf,7998,1
5865,18:12:00,18:19:00,7900006,2,0,1,Maribor,46.562065000000004,15.658010999999998,0,9,1797,Wien Hbf,7998,1
5865,18:36:00,18:48:00,8100082,3,0,0,Spielfeld-Straß Bahnhof,46.709581,15.629121,0,9,1797,Wien Hbf,7998,1
5865,18:57:00,18:58:00,8100035,4,0,0,Leibnitz Bahnhof,46.781221,15.546851,0,9,1797,Wien Hbf,7998,1
5865,19:20:00,19:26:00,8100173,5,0,0,Graz Hbf,47.072503000000005,15.416464000000001,0,9,1797,Wien Hbf,7998,1
5865,20:01:00,20:03:00,8100032,6,0,0,Bruck/Mur Bahnhof,47.413649,15.279495,0,9,1797,Wien Hbf,7998,1
5865,20:09:00,20:11:00,8100031,7,0,0,Kapfenberg Bahnhof,47.445195,15.292089,0,9,1797,Wien Hbf,7998,1
5865,20:32:00,20:33:00,8100029,8,0,0,Mürzzuschlag Bahnhof,47.607874,15.677004,0,9,1797,Wien Hbf,7998,1
5865,21:28:00,21:32:00,8100516,9,0,0,Wr.Neustadt Hbf,47.811693,16.233812,0,9,1797,Wien Hbf,7998,1
5865,21:55:00,21:57:00,8100514,10,0,0,Wien Meidling Bahnhof,48.174582,16.333737,0,9,1797,Wien Hbf,7998,1
5865,22:02:00,22:02:00,8103000,11,1,0,Wien Hbf,48.185101,16.377113,0,9,1797,Wien Hbf,7998,1
5866,07:58:00,07:58:00,8103000,1,0,1,Wien Hbf,48.185101,16.377113,0,9,1000,Ljubljana,7999,1
5866,08:03:00,08:05:00,8100514,2,0,0,Wien Meidling Bahnhof,48.174582,16.333737,0,9,1000,Ljubljana,7999,1
5866,08:28:00,08:32:00,8100516,3,0,0,Wr.Neustadt Hbf,47.811693,16.233812,0,9,1000,Ljubljana,7999,1
5866,09:14:00,09:15:00,8100028,4,0,0,Semmering Bahnhof,47.639703999999995,15.831028,0,9,1000,Ljubljana,7999,1
5866,09:28:00,09:30:00,8100029,5,0,0,Mürzzuschlag Bahnhof,47.607874,15.677004,0,9,1000,Ljubljana,7999,1
5866,09:51:00,09:52:00,8100031,6,0,0,Kapfenberg Bahnhof,47.445195,15.292089,0,9,1000,Ljubljana,7999,1
5866,09:56:00,09:58:00,8100032,7,0,0,Bruck/Mur Bahnhof,47.413649,15.279495,0,9,1000,Ljubljana,7999,1
5866,10:33:00,10:39:00,8100173,8,0,0,Graz Hbf,47.072503000000005,15.416464000000001,0,9,1000,Ljubljana,7999,1
5866,10:58:00,10:59:00,8100035,9,0,0,Leibnitz Bahnhof,46.781221,15.546851,0,9,1000,Ljubljana,7999,1
5866,11:08:00,11:20:00,8100082,10,0,0,Spielfeld-Straß Bahnhof,46.709581,15.629121,0,9,1000,Ljubljana,7999,1
5866,11:35:00,11:45:00,7900006,11,1,0,Maribor,46.562065000000004,15.658010999999998,0,9,1000,Ljubljana,7999,1
5866,14:08:00,14:08:00,7900003,12,1,0,Ljubljana,46.058690999999996,14.512936999999999,0,9,1000,Ljubljana,7999,1
5867,07:58:00,07:58:00,8103000,1,0,1,Wien Hbf,48.185101,16.377113,0,9,1797,Ljubljana,8000,1
5867,08:03:00,08:05:00,8100514,2,0,0,Wien Meidling Bahnhof,48.174582,16.333737,0,9,1797,Ljubljana,8000,1
5867,08:28:00,08:32:00,8100516,3,0,0,Wr.Neustadt Hbf,47.811693,16.233812,0,9,1797,Ljubljana,8000,1
5867,09:14:00,09:15:00,8100028,4,0,0,Semmering Bahnhof,47.639703999999995,15.831028,0,9,1797,Ljubljana,8000,1
5867,09:28:00,09:30:00,8100029,5,0,0,Mürzzuschlag Bahnhof,47.607874,15.677004,0,9,1797,Ljubljana,8000,1
5867,09:51:00,09:52:00,8100031,6,0,0,Kapfenberg Bahnhof,47.445195,15.292089,0,9,1797,Ljubljana,8000,1
5867,09:56:00,09:58:00,8100032,7,0,0,Bruck/Mur Bahnhof,47.413649,15.279495,0,9,1797,Ljubljana,8000,1
5867,10:33:00,10:39:00,8100173,8,0,0,Graz Hbf,47.072503000000005,15.416464000000001,0,9,1797,Ljubljana,8000,1
5867,10:58:00,10:59:00,8100035,9,0,0,Leibnitz Bahnhof,46.781221,15.546851,0,9,1797,Ljubljana,8000,1
5867,11:08:00,11:20:00,8100082,10,0,0,Spielfeld-Straß Bahnhof,46.709581,15.629121,0,9,1797,Ljubljana,8000,1
5867,11:37:00,11:45:00,7900006,11,1,0,Maribor,46.562065000000004,15.658010999999998,0,9,1797,Ljubljana,8000,1
5867,14:14:00,14:14:00,7900003,12,1,0,Ljubljana,46.058690999999996,14.512936999999999,0,9,1797,Ljubljana,8000,1
5868,15:58:00,15:58:00,8103000,1,0,1,Wien Hbf,48.185101,16.377113,0,9,2826,Zagreb Glavni kolodvor,8001,1
5868,16:03:00,16:05:00,8100514,2,0,0,Wien Meidling Bahnhof,48.174582,16.333737,0,9,2826,Zagreb Glavni kolodvor,8001,1
5868,16:30:00,16:32:00,8100516,3,0,0,Wr.Neustadt Hbf,47.811693,16.233812,0,9,2826,Zagreb Glavni kolodvor,8001,1
5868,17:28:00,17:30:00,8100029,4,0,0,Mürzzuschlag Bahnhof,47.607874,15.677004,0,9,2826,Zagreb Glavni kolodvor,8001,1
5868,17:51:00,17:52:00,8100031,5,0,0,Kapfenberg Bahnhof,47.445195,15.292089,0,9,2826,Zagreb Glavni kolodvor,8001,1
5868,17:56:00,17:58:00,8100032,6,0,0,Bruck/Mur Bahnhof,47.413649,15.279495,0,9,2826,Zagreb Glavni kolodvor,8001,1
5868,18:33:00,18:39:00,8100173,7,0,0,Graz Hbf,47.072503000000005,15.416464000000001,0,9,2826,Zagreb Glavni kolodvor,8001,1
5868,18:58:00,18:59:00,8100035,8,0,0,Leibnitz Bahnhof,46.781221,15.546851,0,9,2826,Zagreb Glavni kolodvor,8001,1
5868,19:08:00,19:20:00,8100082,9,0,0,Spielfeld-Straß Bahnhof,46.709581,15.629121,0,9,2826,Zagreb Glavni kolodvor,8001,1
5868,19:35:00,19:40:00,7900006,10,1,0,Maribor,46.562065000000004,15.658010999999998,0,9,2826,Zagreb Glavni kolodvor,8001,1
5868,22:41:00,22:41:00,7800020,11,1,0,Zagreb Glavni kolodvor,45.8044381,15.9787052,0,9,2826,Zagreb Glavni kolodvor,8001,1
5869,15:58:00,15:58:00,8103000,1,0,1,Wien Hbf,48.185101,16.377113,0,9,2827,Zagreb Glavni kolodvor,8002,1
5869,16:03:00,16:05:00,8100514,2,0,0,Wien Meidling Bahnhof,48.174582,16.333737,0,9,2827,Zagreb Glavni kolodvor,8002,1
5869,16:30:00,16:32:00,8100516,3,0,0,Wr.Neustadt Hbf,47.811693,16.233812,0,9,2827,Zagreb Glavni kolodvor,8002,1
5869,17:28:00,17:30:00,8100029,4,0,0,Mürzzuschlag Bahnhof,47.607874,15.677004,0,9,2827,Zagreb Glavni kolodvor,8002,1
5869,17:51:00,17:52:00,8100031,5,0,0,Kapfenberg Bahnhof,47.445195,15.292089,0,9,2827,Zagreb Glavni kolodvor,8002,1
5869,17:56:00,17:58:00,8100032,6,0,0,Bruck/Mur Bahnhof,47.413649,15.279495,0,9,2827,Zagreb Glavni kolodvor,8002,1
5869,18:33:00,18:39:00,8100173,7,0,0,Graz Hbf,47.072503000000005,15.416464000000001,0,9,2827,Zagreb Glavni kolodvor,8002,1
5869,18:58:00,18:59:00,8100035,8,0,0,Leibnitz Bahnhof,46.781221,15.546851,0,9,2827,Zagreb Glavni kolodvor,8002,1
5869,19:08:00,19:20:00,8100082,9,0,0,Spielfeld-Straß Bahnhof,46.709581,15.629121,0,9,2827,Zagreb Glavni kolodvor,8002,1
5869,19:37:00,19:55:00,7900006,10,1,0,Maribor,46.562065000000004,15.658010999999998,0,9,2827,Zagreb Glavni kolodvor,8002,1
5869,22:41:00,22:41:00,7800020,11,1,0,Zagreb Glavni kolodvor,45.8044381,15.9787052,0,9,2827,Zagreb Glavni kolodvor,8002,1
6129,10:26:00,10:26:00,8100173,1,0,1,Graz Hbf,47.072503000000005,15.416464000000001,0,4,0,Praha hl.n.,8202,1
6129,11:01:00,11:03:00,8100032,2,0,0,Bruck/Mur Bahnhof,47.413649,15.279495,0,4,0,Praha hl.n.,8202,1
6129,11:09:00,11:11:00,8100031,3,0,0,Kapfenberg Bahnhof,47.445195,15.292089,0,4,0,Praha hl.n.,8202,1
6129,11:32:00,11:33:00,8100029,4,0,0,Mürzzuschlag Bahnhof,47.607874,15.677004,0,4,0,Praha hl.n.,8202,1
6129,11:45:00,11:47:00,8100028,5,0,0,Semmering Bahnhof,47.639703999999995,15.831028,0,4,0,Praha hl.n.,8202,1
6129,12:28:00,12:32:00,8100516,6,0,0,Wr.Neustadt Hbf,47.811693,16.233812,0,4,0,Praha hl.n.,8202,1
6129,12:55:00,12:57:00,8100514,7,0,0,Wien Meidling Bahnhof,48.174582,16.333737,0,4,0,Praha hl.n.,8202,1
6129,13:02:00,13:10:00,8103000,8,0,0,Wien Hbf,48.185101,16.377113,0,4,0,Praha hl.n.,8202,1
6129,14:04:00,14:07:00,5400202,9,1,0,Breclav,48.7539,16.893235999999998,0,4,0,Praha hl.n.,8202,1
6129,17:13:00,17:13:00,5400014,10,1,0,Praha hl.n.,50.083062,14.436039000000001,0,4,0,Praha hl.n.,8202,1
6130,10:44:00,10:44:00,5400014,1,0,1,Praha hl.n.,50.083062,14.436039000000001,0,4,2904,Graz Hbf,8203,1
6130,13:52:00,13:55:00,5400202,2,0,1,Breclav,48.7539,16.893235999999998,0,4,2904,Graz Hbf,8203,1
6130,14:49:00,14:58:00,8103000,3,0,0,Wien Hbf,48.185101,16.377113,0,4,2904,Graz Hbf,8203,1
6130,15:03:00,15:05:00,8100514,4,0,0,Wien Meidling Bahnhof,48.174582,16.333737,0,4,2904,Graz Hbf,8203,1
6130,15:30:00,15:32:00,8100516,5,0,0,Wr.Neustadt Hbf,47.811693,16.233812,0,4,2904,Graz Hbf,8203,1
6130,16:14:00,16:15:00,8100028,6,0,0,Semmering Bahnhof,47.639703999999995,15.831028,0,4,2904,Graz Hbf,8203,1
6130,16:28:00,16:30:00,8100029,7,0,0,Mürzzuschlag Bahnhof,47.607874,15.677004,0,4,2904,Graz Hbf,8203,1
6130,16:51:00,16:52:00,8100031,8,0,0,Kapfenberg Bahnhof,47.445195,15.292089,0,4,2904,Graz Hbf,8203,1
6130,16:56:00,16:58:00,8100032,9,0,0,Bruck/Mur Bahnhof,47.413649,15.279495,0,4,2904,Graz Hbf,8203,1
6130,17:33:00,17:33:00,8100173,10,1,0,Graz Hbf,47.072503000000005,15.416464000000001,0,4,2904,Graz Hbf,8203,1
6131,10:44:00,10:44:00,5400014,1,0,1,Praha hl.n.,50.083062,14.436039000000001,0,4,2905,Graz Hbf,8204,1
6131,13:52:00,13:55:00,5400202,2,0,1,Breclav,48.7539,16.893235999999998,0,4,2905,Graz Hbf,8204,1
6131,14:49:00,14:58:00,8103000,3,0,0,Wien Hbf,48.185101,16.377113,0,4,2905,Graz Hbf,8204,1
6131,15:03:00,15:05:00,8100514,4,0,0,Wien Meidling Bahnhof,48.174582,16.333737,0,4,2905,Graz Hbf,8204,1
6131,15:30:00,15:32:00,8100516,5,0,0,Wr.Neustadt Hbf,47.811693,16.233812,0,4,2905,Graz Hbf,8204,1
6131,16:14:00,16:15:00,8100028,6,0,0,Semmering Bahnhof,47.639703999999995,15.831028,0,4,2905,Graz Hbf,8204,1
6131,16:28:00,16:30:00,8100029,7,0,0,Mürzzuschlag Bahnhof,47.607874,15.677004,0,4,2905,Graz Hbf,8204,1
6131,16:51:00,16:52:00,8100031,8,0,0,Kapfenberg Bahnhof,47.445195,15.292089,0,4,2905,Graz Hbf,8204,1
6131,16:56:00,16:58:00,8100032,9,0,0,Bruck/Mur Bahnhof,47.413649,15.279495,0,4,2905,Graz Hbf,8204,1
6131,17:33:00,17:33:00,8100173,10,1,0,Graz Hbf,47.072503000000005,15.416464000000001,0,4,2905,Graz Hbf,8204,1
6281,14:26:00,14:26:00,8100173,1,0,1,Graz Hbf,47.072503000000005,15.416464000000001,0,4,0,Praha hl.n.,8360,1
6281,15:01:00,15:03:00,8100032,2,0,0,Bruck/Mur Bahnhof,47.413649,15.279495,0,4,0,Praha hl.n.,8360,1
6281,15:09:00,15:11:00,8100031,3,0,0,Kapfenberg Bahnhof,47.445195,15.292089,0,4,0,Praha hl.n.,8360,1
6281,15:32:00,15:33:00,8100029,4,0,0,Mürzzuschlag Bahnhof,47.607874,15.677004,0,4,0,Praha hl.n.,8360,1
6281,15:45:00,15:47:00,8100028,5,0,0,Semmering Bahnhof,47.639703999999995,15.831028,0,4,0,Praha hl.n.,8360,1
6281,16:28:00,16:32:00,8100516,6,0,0,Wr.Neustadt Hbf,47.811693,16.233812,0,4,0,Praha hl.n.,8360,1
6281,16:55:00,16:57:00,8100514,7,0,0,Wien Meidling Bahnhof,48.174582,16.333737,0,4,0,Praha hl.n.,8360,1
6281,17:02:00,17:10:00,8103000,8,0,0,Wien Hbf,48.185101,16.377113,0,4,0,Praha hl.n.,8360,1
6281,18:04:00,18:07:00,5400202,9,1,0,Breclav,48.7539,16.893235999999998,0,4,0,Praha hl.n.,8360,1
6281,21:13:00,21:13:00,5400014,10,1,0,Praha hl.n.,50.083062,14.436039000000001,0,4,0,Praha hl.n.,8360,1
6282,14:44:00,14:44:00,5400014,1,0,1,Praha hl.n.,50.083062,14.436039000000001,0,4,21,Graz Hbf,8361,1
6282,17:52:00,17:55:00,5400202,2,0,1,Breclav,48.7539,16.893235999999998,0,4,21,Graz Hbf,8361,1
6282,18:49:00,18:58:00,8103000,3,0,0,Wien Hbf,48.185101,16.377113,0,4,21,Graz Hbf,8361,1
6282,19:03:00,19:05:00,8100514,4,0,0,Wien Meidling Bahnhof,48.174582,16.333737,0,4,21,Graz Hbf,8361,1
6282,19:28:00,19:32:00,8100516,5,0,0,Wr.Neustadt Hbf,47.811693,16.233812,0,4,21,Graz Hbf,8361,1
6282,20:28:00,20:30:00,8100029,6,0,0,Mürzzuschlag Bahnhof,47.607874,15.677004,0,4,21,Graz Hbf,8361,1
6282,20:51:00,20:52:00,8100031,7,0,0,Kapfenberg Bahnhof,47.445195,15.292089,0,4,21,Graz Hbf,8361,1
6282,20:56:00,20:58:00,8100032,8,0,0,Bruck/Mur Bahnhof,47.413649,15.279495,0,4,21,Graz Hbf,8361,1
6282,21:33:00,21:33:00,8100173,9,1,0,Graz Hbf,47.072503000000005,15.416464000000001,0,4,21,Graz Hbf,8361,1
6283,14:44:00,14:44:00,5400014,1,0,1,Praha hl.n.,50.083062,14.436039000000001,0,4,22,Graz Hbf,8362,1
6283,17:52:00,17:55:00,5400202,2,0,1,Breclav,48.7539,16.893235999999998,0,4,22,Graz Hbf,8362,1
6283,18:49:00,18:58:00,8103000,3,0,0,Wien Hbf,48.185101,16.377113,0,4,22,Graz Hbf,8362,1
6283,19:03:00,19:05:00,8100514,4,0,0,Wien Meidling Bahnhof,48.174582,16.333737,0,4,22,Graz Hbf,8362,1
6283,19:30:00,19:32:00,8100516,5,0,0,Wr.Neustadt Hbf,47.811693,16.233812,0,4,22,Graz Hbf,8362,1
6283,20:28:00,20:30:00,8100029,6,0,0,Mürzzuschlag Bahnhof,47.607874,15.677004,0,4,22,Graz Hbf,8362,1
6283,20:51:00,20:52:00,8100031,7,0,0,Kapfenberg Bahnhof,47.445195,15.292089,0,4,22,Graz Hbf,8362,1
6283,20:56:00,20:58:00,8100032,8,0,0,Bruck/Mur Bahnhof,47.413649,15.279495,0,4,22,Graz Hbf,8362,1
6283,21:33:00,21:33:00,8100173,9,1,0,Graz Hbf,47.072503000000005,15.416464000000001,0,4,22,Graz Hbf,8362,1
6284,16:26:00,16:26:00,8100173,1,0,1,Graz Hbf,47.072503000000005,15.416464000000001,0,4,0,Praha hl.n.,8363,1
6284,17:01:00,17:03:00,8100032,2,0,0,Bruck/Mur Bahnhof,47.413649,15.279495,0,4,0,Praha hl.n.,8363,1
6284,17:09:00,17:11:00,8100031,3,0,0,Kapfenberg Bahnhof,47.445195,15.292089,0,4,0,Praha hl.n.,8363,1
6284,17:32:00,17:33:00,8100029,4,0,0,Mürzzuschlag Bahnhof,47.607874,15.677004,0,4,0,Praha hl.n.,8363,1
6284,17:45:00,17:47:00,8100028,5,0,0,Semmering Bahnhof,47.639703999999995,15.831028,0,4,0,Praha hl.n.,8363,1
6284,18:28:00,18:32:00,8100516,6,0,0,Wr.Neustadt Hbf,47.811693,16.233812,0,4,0,Praha hl.n.,8363,1
6284,18:55:00,18:57:00,8100514,7,0,0,Wien Meidling Bahnhof,48.174582,16.333737,0,4,0,Praha hl.n.,8363,1
6284,19:02:00,19:10:00,8103000,8,0,0,Wien Hbf,48.185101,16.377113,0,4,0,Praha hl.n.,8363,1
6284,20:04:00,20:07:00,5400202,9,1,0,Breclav,48.7539,16.893235999999998,0,4,0,Praha hl.n.,8363,1
6284,23:15:00,23:15:00,5400014,10,1,0,Praha hl.n.,50.083062,14.436039000000001,0,4,0,Praha hl.n.,8363,1
6285,16:44:00,16:44:00,5400014,1,0,1,Praha hl.n.,50.083062,14.436039000000001,0,4,0,Graz Hbf,8364,1
6285,19:52:00,19:55:00,5400202,2,0,1,Breclav,48.7539,16.893235999999998,0,4,0,Graz Hbf,8364,1
6285,20:49:00,20:58:00,8103000,3,0,0,Wien Hbf,48.185101,16.377113,0,4,0,Graz Hbf,8364,1
6285,21:03:00,21:05:00,8100514,4,0,0,Wien Meidling Bahnhof,48.174582,16.333737,0,4,0,Graz Hbf,8364,1
6285,21:28:00,21:32:00,8100516,5,0,0,Wr.Neustadt Hbf,47.811693,16.233812,0,4,0,Graz Hbf,8364,1
6285,22:28:00,22:30:00,8100029,6,0,0,Mürzzuschlag Bahnhof,47.607874,15.677004,0,4,0,Graz Hbf,8364,1
6285,22:51:00,22:52:00,8100031,7,0,0,Kapfenberg Bahnhof,47.445195,15.292089,0,4,0,Graz Hbf,8364,1
6285,22:56:00,22:58:00,8100032,8,0,0,Bruck/Mur Bahnhof,47.413649,15.279495,0,4,0,Graz Hbf,8364,1
6285,23:33:00,23:33:00,8100173,9,1,0,Graz Hbf,47.072503000000005,15.416464000000001,0,4,0,Graz Hbf,8364,1
6286,18:26:00,18:26:00,8100173,1,0,1,Graz Hbf,47.072503000000005,15.416464000000001,0,4,0,Breclav,8365,1
6286,19:01:00,19:03:00,8100032,2,0,0,Bruck/Mur Bahnhof,47.413649,15.279495,0,4,0,Breclav,8365,1
6286,19:09:00,19:11:00,8100031,3,0,0,Kapfenberg Bahnhof,47.445195,15.292089,0,4,0,Breclav,8365,1
6286,19:32:00,19:33:00,8100029,4,0,0,Mürzzuschlag Bahnhof,47.607874,15.677004,0,4,0,Breclav,8365,1
6286,20:28:00,20:32:00,8100516,5,0,0,Wr.Neustadt Hbf,47.811693,16.233812,0,4,0,Breclav,8365,1
6286,20:55:00,20:57:00,8100514,6,0,0,Wien Meidling Bahnhof,48.174582,16.333737,0,4,0,Breclav,8365,1
6286,21:02:00,21:10:00,8103000,7,0,0,Wien Hbf,48.185101,16.377113,0,4,0,Breclav,8365,1
6286,22:04:00,22:04:00,5400202,8,1,0,Breclav,48.7539,16.893235999999998,0,4,0,Breclav,8365,1
6768,04:44:00,04:44:00,5400014,1,0,1,Praha hl.n.,50.083062,14.436039000000001,0,4,659,Graz Hbf,8764,1
6768,07:52:00,07:55:00,5400202,2,0,1,Breclav,48.7539,16.893235999999998,0,4,659,Graz Hbf,8764,1
6768,08:49:00,08:58:00,8103000,3,0,0,Wien Hbf,48.185101,16.377113,0,4,659,Graz Hbf,8764,1
6768,09:03:00,09:05:00,8100514,4,0,0,Wien Meidling Bahnhof,48.174582,16.333737,0,4,659,Graz Hbf,8764,1
6768,09:28:00,09:32:00,8100516,5,0,0,Wr.Neustadt Hbf,47.811693,16.233812,0,4,659,Graz Hbf,8764,1
6768,10:14:00,10:15:00,8100028,6,0,0,Semmering Bahnhof,47.639703999999995,15.831028,0,4,659,Graz Hbf,8764,1
6768,10:28:00,10:30:00,8100029,7,0,0,Mürzzuschlag Bahnhof,47.607874,15.677004,0,4,659,Graz Hbf,8764,1
6768,10:51:00,10:52:00,8100031,8,0,0,Kapfenberg Bahnhof,47.445195,15.292089,0,4,659,Graz Hbf,8764,1
6768,10:56:00,10:58:00,8100032,9,0,0,Bruck/Mur Bahnhof,47.413649,15.279495,0,4,659,Graz Hbf,8764,1
6768,11:33:00,11:33:00,8100173,10,1,0,Graz Hbf,47.072503000000005,15.416464000000001,0,4,659,Graz Hbf,8764,1
6769,07:55:00,07:55:00,5400202,1,0,1,Breclav,48.7539,16.893235999999998,0,4,3029,Graz Hbf,8765,1
6769,08:49:00,08:58:00,8103000,2,0,0,Wien Hbf,48.185101,16.377113,0,4,3029,Graz Hbf,8765,1
6769,09:03:00,09:05:00,8100514,3,0,0,Wien Meidling Bahnhof,48.174582,16.333737,0,4,3029,Graz Hbf,8765,1
6769,09:28:00,09:32:00,8100516,4,0,0,Wr.Neustadt Hbf,47.811693,16.233812,0,4,3029,Graz Hbf,8765,1
6769,10:14:00,10:15:00,8100028,5,0,0,Semmering Bahnhof,47.639703999999995,15.831028,0,4,3029,Graz Hbf,8765,1
6769,10:28:00,10:30:00,8100029,6,0,0,Mürzzuschlag Bahnhof,47.607874,15.677004,0,4,3029,Graz Hbf,8765,1
6769,10:51:00,10:52:00,8100031,7,0,0,Kapfenberg Bahnhof,47.445195,15.292089,0,4,3029,Graz Hbf,8765,1
6769,10:56:00,10:58:00,8100032,8,0,0,Bruck/Mur Bahnhof,47.413649,15.279495,0,4,3029,Graz Hbf,8765,1
6769,11:33:00,11:33:00,8100173,9,1,0,Graz Hbf,47.072503000000005,15.416464000000001,0,4,3029,Graz Hbf,8765,1
6770,06:26:00,06:26:00,8100173,1,0,1,Graz Hbf,47.072503000000005,15.416464000000001,0,4,0,Praha hl.n.,8766,1
6770,07:01:00,07:03:00,8100032,2,0,0,Bruck/Mur Bahnhof,47.413649,15.279495,0,4,0,Praha hl.n.,8766,1
6770,07:09:00,07:11:00,8100031,3,0,0,Kapfenberg Bahnhof,47.445195,15.292089,0,4,0,Praha hl.n.,8766,1
6770,07:32:00,07:33:00,8100029,4,0,0,Mürzzuschlag Bahnhof,47.607874,15.677004,0,4,0,Praha hl.n.,8766,1
6770,07:45:00,07:47:00,8100028,5,0,0,Semmering Bahnhof,47.639703999999995,15.831028,0,4,0,Praha hl.n.,8766,1
6770,08:28:00,08:32:00,8100516,6,0,0,Wr.Neustadt Hbf,47.811693,16.233812,0,4,0,Praha hl.n.,8766,1
6770,08:55:00,08:57:00,8100514,7,0,0,Wien Meidling Bahnhof,48.174582,16.333737,0,4,0,Praha hl.n.,8766,1
6770,09:02:00,09:10:00,8103000,8,0,0,Wien Hbf,48.185101,16.377113,0,4,0,Praha hl.n.,8766,1
6770,10:04:00,10:07:00,5400202,9,1,0,Breclav,48.7539,16.893235999999998,0,4,0,Praha hl.n.,8766,1
6770,13:13:00,13:13:00,5400014,10,1,0,Praha hl.n.,50.083062,14.436039000000001,0,4,0,Praha hl.n.,8766,1
6771,06:44:00,06:44:00,5400014,1,0,1,Praha hl.n.,50.083062,14.436039000000001,0,4,0,Graz Hbf,8767,1
6771,09:52:00,09:55:00,5400202,2,0,1,Breclav,48.7539,16.893235999999998,0,4,0,Graz Hbf,8767,1
6771,10:49:00,10:58:00,8103000,3,0,0,Wien Hbf,48.185101,16.377113,0,4,0,Graz Hbf,8767,1
6771,11:03:00,11:05:00,8100514,4,0,0,Wien Meidling Bahnhof,48.174582,16.333737,0,4,0,Graz Hbf,8767,1
6771,11:28:00,11:32:00,8100516,5,0,0,Wr.Neustadt Hbf,47.811693,16.233812,0,4,0,Graz Hbf,8767,1
6771,12:28:00,12:30:00,8100029,6,0,0,Mürzzuschlag Bahnhof,47.607874,15.677004,0,4,0,Graz Hbf,8767,1
6771,12:51:00,12:52:00,8100031,7,0,0,Kapfenberg Bahnhof,47.445195,15.292089,0,4,0,Graz Hbf,8767,1
6771,12:56:00,12:58:00,8100032,8,0,0,Bruck/Mur Bahnhof,47.413649,15.279495,0,4,0,Graz Hbf,8767,1
6771,13:33:00,13:33:00,8100173,9,1,0,Graz Hbf,47.072503000000005,15.416464000000001,0,4,0,Graz Hbf,8767,1
6772,08:26:00,08:26:00,8100173,1,0,1,Graz Hbf,47.072503000000005,15.416464000000001,0,4,0,Praha hl.n.,8768,1
6772,09:01:00,09:03:00,8100032,2,0,0,Bruck/Mur Bahnhof,47.413649,15.279495,0,4,0,Praha hl.n.,8768,1
6772,09:09:00,09:11:00,8100031,3,0,0,Kapfenberg Bahnhof,47.445195,15.292089,0,4,0,Praha hl.n.,8768,1
6772,09:32:00,09:33:00,8100029,4,0,0,Mürzzuschlag Bahnhof,47.607874,15.677004,0,4,0,Praha hl.n.,8768,1
6772,09:45:00,09:47:00,8100028,5,0,0,Semmering Bahnhof,47.639703999999995,15.831028,0,4,0,Praha hl.n.,8768,1
6772,10:28:00,10:32:00,8100516,6,0,0,Wr.Neustadt Hbf,47.811693,16.233812,0,4,0,Praha hl.n.,8768,1
6772,10:55:00,10:57:00,8100514,7,0,0,Wien Meidling Bahnhof,48.174582,16.333737,0,4,0,Praha hl.n.,8768,1
6772,11:02:00,11:10:00,8103000,8,0,0,Wien Hbf,48.185101,16.377113,0,4,0,Praha hl.n.,8768,1
6772,12:04:00,12:07:00,5400202,9,1,0,Breclav,48.7539,16.893235999999998,0,4,0,Praha hl.n.,8768,1
6772,15:13:00,15:13:00,5400014,10,1,0,Praha hl.n.,50.083062,14.436039000000001,0,4,0,Praha hl.n.,8768,1
6773,08:44:00,08:44:00,5400014,1,0,1,Praha hl.n.,50.083062,14.436039000000001,0,4,0,Graz Hbf,8769,1
6773,11:52:00,11:55:00,5400202,2,0,1,Breclav,48.7539,16.893235999999998,0,4,0,Graz Hbf,8769,1
6773,12:49:00,12:58:00,8103000,3,0,0,Wien Hbf,48.185101,16.377113,0,4,0,Graz Hbf,8769,1
6773,13:03:00,13:05:00,8100514,4,0,0,Wien Meidling Bahnhof,48.174582,16.333737,0,4,0,Graz Hbf,8769,1
6773,13:28:00,13:32:00,8100516,5,0,0,Wr.Neustadt Hbf,47.811693,16.233812,0,4,0,Graz Hbf,8769,1
6773,14:28:00,14:30:00,8100029,6,0,0,Mürzzuschlag Bahnhof,47.607874,15.677004,0,4,0,Graz Hbf,8769,1
6773,14:51:00,14:52:00,8100031,7,0,0,Kapfenberg Bahnhof,47.445195,15.292089,0,4,0,Graz Hbf,8769,1
6773,14:56:00,14:58:00,8100032,8,0,0,Bruck/Mur Bahnhof,47.413649,15.279495,0,4,0,Graz Hbf,8769,1
6773,15:33:00,15:33:00,8100173,9,1,0,Graz Hbf,47.072503000000005,15.416464000000001,0,4,0,Graz Hbf,8769,1
6874,12:26:00,12:26:00,8100173,1,0,1,Graz Hbf,47.072503000000005,15.416464000000001,0,4,0,Praha hl.n.,8837,1
6874,13:01:00,13:03:00,8100032,2,0,0,Bruck/Mur Bahnhof,47.413649,15.279495,0,4,0,Praha hl.n.,8837,1
6874,13:09:00,13:11:00,8100031,3,0,0,Kapfenberg Bahnhof,47.445195,15.292089,0,4,0,Praha hl.n.,8837,1
6874,13:32:00,13:33:00,8100029,4,0,0,Mürzzuschlag Bahnhof,47.607874,15.677004,0,4,0,Praha hl.n.,8837,1
6874,13:45:00,13:47:00,8100028,5,0,0,Semmering Bahnhof,47.639703999999995,15.831028,0,4,0,Praha hl.n.,8837,1
6874,14:28:00,14:32:00,8100516,6,0,0,Wr.Neustadt Hbf,47.811693,16.233812,0,4,0,Praha hl.n.,8837,1
6874,14:55:00,14:57:00,8100514,7,0,0,Wien Meidling Bahnhof,48.174582,16.333737,0,4,0,Praha hl.n.,8837,1
6874,15:02:00,15:10:00,8103000,8,0,0,Wien Hbf,48.185101,16.377113,0,4,0,Praha hl.n.,8837,1
6874,16:04:00,16:07:00,5400202,9,1,0,Breclav,48.7539,16.893235999999998,0,4,0,Praha hl.n.,8837,1
6874,19:13:00,19:13:00,5400014,10,1,0,Praha hl.n.,50.083062,14.436039000000001,0,4,0,Praha hl.n.,8837,1
6875,12:44:00,12:44:00,5400014,1,0,1,Praha hl.n.,50.083062,14.436039000000001,0,4,20,Graz Hbf,8838,1
6875,15:52:00,15:55:00,5400202,2,0,1,Breclav,48.7539,16.893235999999998,0,4,20,Graz Hbf,8838,1
6875,16:49:00,16:58:00,8103000,3,0,0,Wien Hbf,48.185101,16.377113,0,4,20,Graz Hbf,8838,1
6875,17:03:00,17:05:00,8100514,4,0,0,Wien Meidling Bahnhof,48.174582,16.333737,0,4,20,Graz Hbf,8838,1
6875,17:30:00,17:32:00,8100516,5,0,0,Wr.Neustadt Hbf,47.811693,16.233812,0,4,20,Graz Hbf,8838,1
6875,18:14:00,18:15:00,8100028,6,0,0,Semmering Bahnhof,47.639703999999995,15.831028,0,4,20,Graz Hbf,8838,1
6875,18:28:00,18:30:00,8100029,7,0,0,Mürzzuschlag Bahnhof,47.607874,15.677004,0,4,20,Graz Hbf,8838,1
6875,18:51:00,18:52:00,8100031,8,0,0,Kapfenberg Bahnhof,47.445195,15.292089,0,4,20,Graz Hbf,8838,1
6875,18:56:00,18:58:00,8100032,9,0,0,Bruck/Mur Bahnhof,47.413649,15.279495,0,4,20,Graz Hbf,8838,1
6875,19:33:00,19:33:00,8100173,10,1,0,Graz Hbf,47.072503000000005,15.416464000000001,0,4,20,Graz Hbf,8838,1
6876,12:44:00,12:44:00,5400014,1,0,1,Praha hl.n.,50.083062,14.436039000000001,0,4,4,Graz Hbf,8839,1
6876,15:52:00,15:55:00,5400202,2,0,1,Breclav,48.7539,16.893235999999998,0,4,4,Graz Hbf,8839,1
6876,16:49:00,16:58:00,8103000,3,0,0,Wien Hbf,48.185101,16.377113,0,4,4,Graz Hbf,8839,1
6876,17:03:00,17:05:00,8100514,4,0,0,Wien Meidling Bahnhof,48.174582,16.333737,0,4,4,Graz Hbf,8839,1
6876,17:28:00,17:32:00,8100516,5,0,0,Wr.Neustadt Hbf,47.811693,16.233812,0,4,4,Graz Hbf,8839,1
6876,18:14:00,18:15:00,8100028,6,0,0,Semmering Bahnhof,47.639703999999995,15.831028,0,4,4,Graz Hbf,8839,1
6876,18:28:00,18:30:00,8100029,7,0,0,Mürzzuschlag Bahnhof,47.607874,15.677004,0,4,4,Graz Hbf,8839,1
6876,18:51:00,18:52:00,8100031,8,0,0,Kapfenberg Bahnhof,47.445195,15.292089,0,4,4,Graz Hbf,8839,1
6876,18:56:00,18:58:00,8100032,9,0,0,Bruck/Mur Bahnhof,47.413649,15.279495,0,4,4,Graz Hbf,8839,1
6876,19:33:00,19:33:00,8100173,10,1,0,Graz Hbf,47.072503000000005,15.416464000000001,0,4,4,Graz Hbf,8839,1
